ATT_Roll,ATT_Pitch,ATT_Yaw,ATT_RollRate,ATT_PitchRate,ATT_YawRate,ATT_GX,ATT_GY,ATT_GZ,ATSP_RollSP,ATSP_PitchSP,ATSP_YawSP,ATSP_ThrustSP,MATS_RollSP,MATS_PitchSP,MATS_YawSP,MATS_ThrustSP,FATS_RollSP,FATS_PitchSP,FATS_YawSP,FATS_ThrustSP,IMU_AccX,IMU_AccY,IMU_AccZ,IMU_GyroX,IMU_GyroY,IMU_GyroZ,IMU_MagX,IMU_MagY,IMU_MagZ,IMU1_AccX,IMU1_AccY,IMU1_AccZ,IMU1_GyroX,IMU1_GyroY,IMU1_GyroZ,IMU1_MagX,IMU1_MagY,IMU1_MagZ,IMU2_AccX,IMU2_AccY,IMU2_AccZ,IMU2_GyroX,IMU2_GyroY,IMU2_GyroZ,IMU2_MagX,IMU2_MagY,IMU2_MagZ,SENS_BaroPres,SENS_BaroAlt,SENS_BaroTemp,SENS_DiffPres,SENS_DiffPresFilt,LPOS_X,LPOS_Y,LPOS_Z,LPOS_Dist,LPOS_DistR,LPOS_VX,LPOS_VY,LPOS_VZ,LPOS_RLat,LPOS_RLon,LPOS_RAlt,LPOS_PFlg,LPOS_LFlg,LPOS_GFlg,LPOS_EPH,LPOS_EPV,LPSP_X,LPSP_Y,LPSP_Z,LPSP_Yaw,GPS_GPSTime,GPS_Fix,GPS_EPH,GPS_EPV,GPS_Lat,GPS_Lon,GPS_Alt,GPS_VelN,GPS_VelE,GPS_VelD,GPS_Cog,GPS_nSat,GPS_SNR,GPS_N,GPS_J,ATTC_Roll,ATTC_Pitch,ATTC_Yaw,ATTC_Thrust,MATC_Roll,MATC_Pitch,MATC_Yaw,MATC_Thrust,FATC_Roll,FATC_Pitch,FATC_Yaw,FATC_Thrust,STAT_MainState,STAT_ArmState,STAT_FailsafeState,STAT_BatRem,STAT_BatWarn,STAT_Landed,RC_Ch0,RC_Ch1,RC_Ch2,RC_Ch3,RC_Ch4,RC_Ch5,RC_Ch6,RC_Ch7,RC_Count,RC_SignalLost,OUT0_Out0,OUT0_Out1,OUT0_Out2,OUT0_Out3,OUT0_Out4,OUT0_Out5,OUT0_Out6,OUT0_Out7,OUT1_Out0,OUT1_Out1,OUT1_Out2,OUT1_Out3,OUT1_Out4,OUT1_Out5,OUT1_Out6,OUT1_Out7,AIRS_IndSpeed,AIRS_TrueSpeed,AIRS_AirTemp,ARSP_RollRateSP,ARSP_PitchRateSP,ARSP_YawRateSP,MARS_RollRateSP,MARS_PitchRateSP,MARS_YawRateSP,FARS_RollRateSP,FARS_PitchRateSP,FARS_YawRateSP,FLOW_RawX,FLOW_RawY,FLOW_CompX,FLOW_CompY,FLOW_Dist,FLOW_Q,FLOW_SensID,GPOS_Lat,GPOS_Lon,GPOS_Alt,GPOS_VelN,GPOS_VelE,GPOS_VelD,GPOS_EPH,GPOS_EPV,GPOS_TALT,GPSP_NavState,GPSP_Lat,GPSP_Lon,GPSP_Alt,GPSP_Yaw,GPSP_Type,GPSP_LoitR,GPSP_LoitDir,GPSP_PitMin,ESC_count,ESC_nESC,ESC_Conn,ESC_N,ESC_Ver,ESC_Adr,ESC_Volt,ESC_Amp,ESC_RPM,ESC_Temp,ESC_SetP,ESC_SetPRAW,GVSP_VX,GVSP_VY,GVSP_VZ,BATT_V,BATT_VFilt,BATT_C,BATT_Discharged,DIST_Bottom,DIST_BottomRate,DIST_Flags,TEL0_RSSI,TEL0_RemRSSI,TEL0_Noise,TEL0_RemNoise,TEL0_RXErr,TEL0_Fixed,TEL0_TXBuf,TEL0_HbTime,TEL1_RSSI,TEL1_RemRSSI,TEL1_Noise,TEL1_RemNoise,TEL1_RXErr,TEL1_Fixed,TEL1_TXBuf,TEL1_HbTime,TEL2_RSSI,TEL2_RemRSSI,TEL2_Noise,TEL2_RemNoise,TEL2_RXErr,TEL2_Fixed,TEL2_TXBuf,TEL2_HbTime,TEL3_RSSI,TEL3_RemRSSI,TEL3_Noise,TEL3_RemNoise,TEL3_RXErr,TEL3_Fixed,TEL3_TXBuf,TEL3_HbTime,EST0_s0,EST0_s1,EST0_s2,EST0_s3,EST0_s4,EST0_s5,EST0_s6,EST0_s7,EST0_s8,EST0_s9,EST0_s10,EST0_s11,EST0_nStat,EST0_fNaN,EST0_fHealth,EST0_fTOut,EST1_s12,EST1_s13,EST1_s14,EST1_s15,EST1_s16,EST1_s17,EST1_s18,EST1_s19,EST1_s20,EST1_s21,EST1_s22,EST1_s23,EST1_s24,EST1_s25,EST1_s26,EST1_s27,PWR_Periph5V,PWR_Servo5V,PWR_RSSI,PWR_UsbOk,PWR_BrickOk,PWR_ServoOk,PWR_PeriphOC,PWR_HipwrOC,VICN_X,VICN_Y,VICN_Z,VICN_Roll,VICN_Pitch,VICN_Yaw,VISN_X,VISN_Y,VISN_Z,VISN_VX,VISN_VY,VISN_VZ,VISN_QuatX,VISN_QuatY,VISN_QuatZ,VISN_QuatW,GS0A_s0,GS0A_s1,GS0A_s2,GS0A_s3,GS0A_s4,GS0A_s5,GS0A_s6,GS0A_s7,GS0A_s8,GS0A_s9,GS0A_s10,GS0A_s11,GS0A_s12,GS0A_s13,GS0A_s14,GS0A_s15,GS0B_s0,GS0B_s1,GS0B_s2,GS0B_s3,GS0B_s4,GS0B_s5,GS0B_s6,GS0B_s7,GS0B_s8,GS0B_s9,GS0B_s10,GS0B_s11,GS0B_s12,GS0B_s13,GS0B_s14,GS0B_s15,GS1A_s0,GS1A_s1,GS1A_s2,GS1A_s3,GS1A_s4,GS1A_s5,GS1A_s6,GS1A_s7,GS1A_s8,GS1A_s9,GS1A_s10,GS1A_s11,GS1A_s12,GS1A_s13,GS1A_s14,GS1A_s15,GS1B_s0,GS1B_s1,GS1B_s2,GS1B_s3,GS1B_s4,GS1B_s5,GS1B_s6,GS1B_s7,GS1B_s8,GS1B_s9,GS1B_s10,GS1B_s11,GS1B_s12,GS1B_s13,GS1B_s14,GS1B_s15,TECS_ASP,TECS_AF,TECS_FSP,TECS_F,TECS_AsSP,TECS_AsF,TECS_AsDSP,TECS_AsD,TECS_EE,TECS_ERE,TECS_EDE,TECS_EDRE,TECS_PtchI,TECS_ThrI,TECS_M,WIND_X,WIND_Y,WIND_CovX,WIND_CovY,ENCD_cnt0,ENCD_vel0,ENCD_cnt1,ENCD_vel1,EKFG_lat,EKFG_lon,EKFG_posTestRatio,EKFG_posFailTime,MISS_seq_curt,HOME_lat,HOME_lon,HOME_alt,MAN_pitch,MAN_roll,MAN_yaw,MAN_thrust,THRS_x,THRS_y,THRS_z,VBAT_v0,VBAT_v1,VBAT_v2,VBAT_v3,VBAT_v4,VBAT_v5,VTOL_Mode,VTOL_Weight,VTOL_Tilt,TIME_StartTime,VER_Arch,VER_FwGit,PARM_Name,PARM_Value
,,,,,,,,,,,,,,,,,,,,,,,,,,,,,,,,,,,,,,,,,,,,,,,,,,,,,,,,,,,,,,,,,,,,,,,,,,,,,,,,,,,,,,,,,,,,,,,,,,,,,,,,,,,,,,,,,,,,,,,,,,,,,,,,,,,,,,,,,,,,,,,,,,,,,,,,,,,,,,,,,,,,,,,,,,,,,,,,,,,,,,,,,,,,,,,,,,,,,,,,,,,,,,,,,,,,,,,,,,,,,,,,,,,,,,,,,,,,,,,,,,,,,,,,,,,,,,,,,,,,,,,,,,,,,,,,,,,,,,,,,,,,,,,,,,,,,,,,,,,,,,,,,,,,,,,,,,,,,,,,,,,,,,,,,,,,,,,,,,,,,,,,,,,,,,,,,,,,,,,,,,,,,,,,,,,,,,,,,,,,,,,,,,,,,,,b'PX4FMU_V2\x00\x00\x00\x00\x00\x00\x00',b'78bf962505a82dc6e4976fa7c6c9876a2ca60ce5\x00\x00\x00\x00\x00\x00\x00\x00\x00\x00\x00\x00\x00\x00\x00\x00\x00\x00\x00\x00\x00\x00\x00\x00',b'FW_R_LIM\x00\x00\x00\x00\x00\x00\x00\x00',45.0
,,,,,,,,,,,,,,,,,,,,,,,,,,,,,,,,,,,,,,,,,,,,,,,,,,,,,,,,,,,,,,,,,,,,,,,,,,,,,,,,,,,,,,,,,,,,,,,,,,,,,,,,,,,,,,,,,,,,,,,,,,,,,,,,,,,,,,,,,,,,,,,,,,,,,,,,,,,,,,,,,,,,,,,,,,,,,,,,,,,,,,,,,,,,,,,,,,,,,,,,,,,,,,,,,,,,,,,,,,,,,,,,,,,,,,,,,,,,,,,,,,,,,,,,,,,,,,,,,,,,,,,,,,,,,,,,,,,,,,,,,,,,,,,,,,,,,,,,,,,,,,,,,,,,,,,,,,,,,,,,,,,,,,,,,,,,,,,,,,,,,,,,,,,,,,,,,,,,,,,,,,,,,,,,,,,,,,,,,,,,,,,,,,,,,,,b'PX4FMU_V2\x00\x00\x00\x00\x00\x00\x00',b'78bf962505a82dc6e4976fa7c6c9876a2ca60ce5\x00\x00\x00\x00\x00\x00\x00\x00\x00\x00\x00\x00\x00\x00\x00\x00\x00\x00\x00\x00\x00\x00\x00\x00',b'VTL_DF_FIX\x00\x00\x00\x00\x00\x00',1.0
0.007978282868862152,0.015311100520193577,0.00048313115257769823,-0.0006634647725149989,0.0018530638189986348,-0.0018762904219329357,0.0,0.0,0.0,,,,,0.006265285424888134,0.008055366575717926,0.0005040530231781304,0.0,0.008055366575717926,0.008055366575717926,-0.0,0.0,0.15396229922771454,-0.08845028281211853,-9.87225341796875,-0.0006637278711423278,0.0018637069733813405,-0.0019816041458398104,0.32455724477767944,-0.02599375508725643,0.3588707447052002,,,,,,,,,,,,,,,,,,,1021.1599731445312,-65.6367416381836,34.93000030517578,-32.12543487548828,-28.264291763305664,0.004518747329711914,0.002895727753639221,-0.0025060176849365234,0.0,0.0,0.0069282217882573605,-0.016007106751203537,-0.028509071096777916,34.1032327,134.4492204,11.227294921875,31,0,0,0.0,0.0,-0.20520305633544922,-0.422531396150589,0.3838742971420288,0.0006848498596809804,1552539178399714,3,0.5830000042915344,0.9080000519752502,34.1032328,134.4492206,14.88800048828125,-0.02500000037252903,-0.021000001579523087,0.014000000432133675,0.10016985237598419,14,0,118,7,,,,,-0.001333798747509718,-0.007810455746948719,0.0019084393279626966,0.0,-0.00015620568592566997,-0.007741820998489857,0.013073750771582127,0.0,0,2,0,1.0,0,0,0.0,0.0,0.0,0.0,0.0,0.0,0.0,0.0,0,0,915.0,915.0,915.0,915.0,915.0,915.0,915.0,915.0,0.0,0.0,0.0,0.0,0.0,0.949999988079071,0.0,0.0,0.0,0.0,21.65666389465332,,,,-0.005138913169503212,-0.021766386926174164,0.0001452840951969847,-0.00020912941545248032,-0.01242254488170147,0.0,0,0,0.0,0.0,0.0,0,0,34.1032328,134.4492204,11.230016708374023,0.0069282217882573605,-0.016007106751203537,-0.028509071096777916,0.5830000042915344,0.9100000262260437,-1.0,,,,,,,,,,62640,217,64,5,0,0,0.0,0.0,0,0.0,0.0,0,,,,,,,,,,,,,,,,,,,,,,,,,,,,,,,,,,,,,,,,,,,,,,,,,,,,,,,,,,,,,,,,,,,,,,,,,,,,,,,,,,,0.0,0.0,0.0,0.0,0.0,0.0,0.0,0.0,0.0,0.0,0.0,0.0,0.0,0.0,0.0,0.0,,,,,,,,,,,,,,,,,,,,,,,,,,,,,,,,,,,,,,,,,,,,,,,,,,,,,,,,,,,,,,,,,,,,,,,,,,,,,,,,,,,,,,,,,,,,,,,,,,,,,,,,,,,,,,,,708197878,b'PX4FMU_V2\x00\x00\x00\x00\x00\x00\x00',b'78bf962505a82dc6e4976fa7c6c9876a2ca60ce5\x00\x00\x00\x00\x00\x00\x00\x00\x00\x00\x00\x00\x00\x00\x00\x00\x00\x00\x00\x00\x00\x00\x00\x00',b'VTL_DF_FIX\x00\x00\x00\x00\x00\x00',1.0
0.007978282868862152,0.015311100520193577,0.00048313115257769823,-0.0006634647725149989,0.0018530638189986348,-0.0018762904219329357,0.0,0.0,0.0,,,,,0.006265285424888134,0.008055366575717926,0.0005040530231781304,0.0,0.008055366575717926,0.008055366575717926,-0.0,0.0,0.15396229922771454,-0.08845028281211853,-9.87225341796875,-0.0006637278711423278,0.0018637069733813405,-0.0019816041458398104,0.32455724477767944,-0.02599375508725643,0.3588707447052002,,,,,,,,,,,,,,,,,,,1021.1599731445312,-65.6367416381836,34.93000030517578,-32.12543487548828,-28.264291763305664,0.004518747329711914,0.002895727753639221,-0.0025060176849365234,0.0,0.0,0.0069282217882573605,-0.016007106751203537,-0.028509071096777916,34.1032327,134.4492204,11.227294921875,31,0,0,0.0,0.0,-0.20520305633544922,-0.422531396150589,0.3838742971420288,0.0006848498596809804,1552539178399714,3,0.5830000042915344,0.9080000519752502,34.1032328,134.4492206,14.88800048828125,-0.02500000037252903,-0.021000001579523087,0.014000000432133675,0.10016985237598419,14,0,118,7,,,,,-0.001333798747509718,-0.007810455746948719,0.0019084393279626966,0.0,-0.00015620568592566997,-0.007741820998489857,0.013073750771582127,0.0,0,2,0,1.0,0,0,0.0,0.0,0.0,0.0,0.0,0.0,0.0,0.0,0,0,915.0,915.0,915.0,915.0,915.0,915.0,915.0,915.0,0.0,0.0,0.0,0.0,0.0,0.949999988079071,0.0,0.0,0.0,0.0,21.65666389465332,,,,-0.005138913169503212,-0.021766386926174164,0.0001452840951969847,-0.00020912941545248032,-0.01242254488170147,0.0,0,0,0.0,0.0,0.0,0,0,34.1032328,134.4492204,11.230016708374023,0.0069282217882573605,-0.016007106751203537,-0.028509071096777916,0.5830000042915344,0.9100000262260437,-1.0,,,,,,,,,,62640,217,64,101,29741,29288,5.176669347080458e+22,3.392506760586828e+27,1869767529,4.5451285885390386e+30,7.801925120175954e+31,27759,,,,,,,,0.00024888888583518565,0.0,0,,,,,,,,,,,,,,,,,,,,,,,,,,,,,,,,,,,,,,,,,,,,,,,,,,,,,,,,,,,,,,,,,,,,,,,,,0.0,0.0,0.0,0.0,0.0,0.0,0.0,0.0,0.0,0.0,0.0,0.0,0.0,0.0,0.0,0.0,,,,,,,,,,,,,,,,,,,,,,,,,,,,,,,,,,,,,,,,,,,,,,,,,,,,,,,,,,,,,,,,,,,,,,,,,,,,,,,,,,,,,,,,,,,,,,,,,,,,,,,,,,,,,,,,708197878,b'PX4FMU_V2\x00\x00\x00\x00\x00\x00\x00',b'78bf962505a82dc6e4976fa7c6c9876a2ca60ce5\x00\x00\x00\x00\x00\x00\x00\x00\x00\x00\x00\x00\x00\x00\x00\x00\x00\x00\x00\x00\x00\x00\x00\x00',b'VTL_DF_FIX\x00\x00\x00\x00\x00\x00',1.0
0.007938374765217304,0.015354780480265617,0.0004554596380330622,-0.0016368709038943052,0.001812365953810513,-0.0012864903546869755,0.0,0.0,0.0,,,,,0.006265285424888134,0.008055366575717926,0.0005040530231781304,0.0,0.008055366575717926,0.008055366575717926,-0.0,0.0,0.1360388547182083,-0.09109356254339218,-9.834001541137695,-0.0014595544198527932,0.002066307934001088,-0.001980942441150546,0.3255311846733093,-0.039155665785074234,0.3588707447052002,,,,,,,,,,,,,,,,,,,1021.1599731445312,-65.6367416381836,34.939998626708984,-35.38690185546875,-29.657318115234375,0.004587411880493164,0.0018269121646881104,-0.00619816780090332,0.0,0.0,0.006595170591026545,-0.017572348937392235,-0.029957296326756477,34.1032327,134.4492204,11.227294921875,31,0,0,0.0,0.0,-0.20520305633544922,-0.422531396150589,0.3838742971420288,0.0006848498596809804,1552539178399714,3,0.5830000042915344,0.9080000519752502,34.1032328,134.4492206,14.88800048828125,-0.02500000037252903,-0.021000001579523087,0.014000000432133675,0.10016985237598419,14,0,118,7,,,,,-0.0007437888998538256,-0.007170672994107008,0.0015237705083563924,0.0,-0.00015620568592566997,-0.007741820998489857,0.013073750771582127,0.0,0,2,0,1.0,0,0,0.0,0.0,0.0,0.0,0.0,0.0,0.0,0.0,0,0,921.0,921.0,921.0,921.0,921.0,921.0,921.0,921.0,0.0,0.0,0.0,0.0,0.0,0.949999988079071,0.0,0.0,0.0,0.0,21.557533264160156,,,,-0.00501985615119338,-0.021896911785006523,0.0002008454903261736,-0.00020912941545248032,-0.01242254488170147,0.0,0,0,0.0,0.0,0.0,0,0,34.1032328,134.4492204,11.233708381652832,0.006595170591026545,-0.017572348937392235,-0.029957296326756477,0.5830000042915344,0.9080000519752502,-1.0,,,,,,,,,,10927,212,117,4,0,0,0.0,0.0,0,0.0,0.0,0,,,,,,,,0.00024888888583518565,0.0,0,,,,,,,,,,,,,,,,,,,,,,,,,,,,,,,,,,,,,,,,,,,,,,,,,,,,,,,,,,,,,,,,,,,,,,,,,0.0,0.0,0.0,0.0,0.0,0.0,0.0,0.0,0.0,0.0,0.0,0.0,0.0,0.0,0.0,0.0,,,,,,,,,,,,,,,,,,,,,,,,,,,,,,,,,,,,,,,,,,,,,,,,,,,,,,,,,,,,,,,,,,,,,,,,,,,,,,,,,,,,,,,,,,,,,,,,,,,,,,,,,,,,,,,,708335987,b'PX4FMU_V2\x00\x00\x00\x00\x00\x00\x00',b'78bf962505a82dc6e4976fa7c6c9876a2ca60ce5\x00\x00\x00\x00\x00\x00\x00\x00\x00\x00\x00\x00\x00\x00\x00\x00\x00\x00\x00\x00\x00\x00\x00\x00',b'VTL_DF_FIX\x00\x00\x00\x00\x00\x00',1.0
0.007934197783470154,0.015373743139207363,0.00043523136992007494,-0.0014385315589606762,0.0019198412774130702,-0.0029930875170975924,0.0,0.0,0.0,,,,,0.006265285424888134,0.008055366575717926,0.0005040530231781304,0.0,0.008055366575717926,0.008055366575717926,-0.0,0.0,0.1499517858028412,-0.11385143548250198,-9.857295989990234,-0.0016536448383703828,0.002090243622660637,-0.0027163969352841377,0.3226093649864197,-0.030381059274077415,0.357950359582901,,,,,,,,,,,,,,,,,,,1021.1399536132812,-65.47129821777344,34.939998626708984,-29.49335479736328,-29.835514068603516,0.00450897216796875,0.0015369504690170288,-0.00678253173828125,0.0,0.0,0.006234699860215187,-0.01822694204747677,-0.02972039207816124,34.1032327,134.4492204,11.227294921875,31,0,0,0.0,0.0,-0.20520305633544922,-0.422531396150589,0.3838742971420288,0.0006848498596809804,1552539178399714,3,0.5830000042915344,0.9080000519752502,34.1032328,134.4492206,14.88800048828125,-0.02500000037252903,-0.021000001579523087,0.014000000432133675,0.10016985237598419,14,0,118,7,,,,,-0.0009702224051579833,-0.007566275540739298,0.0032566895242780447,0.0,-0.00015620568592566997,-0.007741820998489857,0.013073750771582127,0.0,0,2,0,1.0,0,0,0.0,0.0,0.0,0.0,0.0,0.0,0.0,0.0,0,0,921.0,921.0,921.0,921.0,921.0,921.0,921.0,921.0,0.0,0.0,0.0,0.0,0.0,0.949999988079071,0.0,0.0,0.0,0.0,21.551815032958984,,,,-0.005007808096706867,-0.021953415125608444,0.0002415381168248132,-0.00020912941545248032,-0.01242254488170147,0.0,0,0,0.0,0.0,0.0,0,0,34.1032328,134.4492204,11.234292984008789,0.006234699860215187,-0.01822694204747677,-0.02972039207816124,0.5830000042915344,0.9080000519752502,-1.0,,,,,,,,,,28393,30,106,19,0,0,0.0,0.0,0,0.0,0.0,0,,,,15.916199684143066,15.92398452758789,0.0,0.00024888888583518565,0.00024888888583518565,0.0,1,,,,,,,,,,,,,,,,,,,,,,,,,,,,,,,,,,,,,,,,,,,,,,,,,,,,,,,,,,,,,,,,,,,,,,,,,0.0,0.0,0.0,0.0,0.0,0.0,0.0,0.0,0.0,0.0,0.0,0.0,0.0,0.0,0.0,0.0,,,,,,,,,,,,,,,,,,,,,,,,,,,,,,,,,,,,,,,,,,,,,,,,,,,,,,,,,,,,,,,,,,,,,,,,,,,,,,,,,,,,,,,,,,,,,,,,,,,,,,,,,,,,,,,,708359261,b'PX4FMU_V2\x00\x00\x00\x00\x00\x00\x00',b'78bf962505a82dc6e4976fa7c6c9876a2ca60ce5\x00\x00\x00\x00\x00\x00\x00\x00\x00\x00\x00\x00\x00\x00\x00\x00\x00\x00\x00\x00\x00\x00\x00\x00',b'VTL_DF_FIX\x00\x00\x00\x00\x00\x00',1.0
0.007927400059998035,0.015403279103338718,0.0004068581620231271,-0.0023641150910407305,0.0010939078638330102,-0.0019471814157441258,0.0,0.0,0.0,,,,,0.006265285424888134,0.008055366575717926,0.0005040530231781304,0.0,0.008055366575717926,0.008055366575717926,-0.0,0.0,0.15580379962921143,-0.07827433943748474,-9.839284896850586,-0.002368610119447112,0.0010709520429372787,-0.002134145237505436,0.31773969531059265,-0.03125851973891258,0.36071157455444336,,,,,,,,,,,,,,,,,,,1021.1399536132812,-65.47129821777344,34.939998626708984,-33.06806945800781,-30.00661277770996,0.004280805587768555,0.0013576596975326538,-0.0071489810943603516,0.0,0.0,0.005819493904709816,-0.018577998504042625,-0.030031267553567886,34.1032327,134.4492204,11.227294921875,31,0,0,0.0,0.0,-0.20520305633544922,-0.422531396150589,0.3838742971420288,0.0006848498596809804,1552539178399714,3,0.5830000042915344,0.9080000519752502,34.1032328,134.4492206,14.88800048828125,-0.02500000037252903,-0.021000001579523087,0.014000000432133675,0.10016985237598419,14,0,118,7,,,,,-0.00021884997840970755,-0.006351824384182692,0.0022232462652027607,0.0,-0.00015620568592566997,-0.007741820998489857,0.013073750771582127,0.0,0,2,0,1.0,0,0,0.0,0.0,0.0,0.0,0.0,0.0,0.0,0.0,0,0,922.0,922.0,922.0,922.0,922.0,922.0,922.0,922.0,0.0,0.0,0.0,0.0,0.0,0.949999988079071,0.0,0.0,0.0,0.0,21.546098709106445,,,,-0.004988093860447407,-0.022041482850909233,0.0002987052430398762,-0.00020912941545248032,-0.01242254488170147,0.0,0,0,0.0,0.0,0.0,0,0,34.1032328,134.4492204,11.234659194946289,0.005819493904709816,-0.018577998504042625,-0.030031267553567886,0.5830000042915344,0.9080000519752502,-1.0,,,,,,,,,,46534,105,94,64,0,0,0.0,0.0,0,0.0,0.0,0,,,,15.916199684143066,15.92398452758789,0.0,0.00024888888583518565,0.00024888888583518565,0.0,1,,,,,,,,,,,,,,,,,,,,,,,,,,,,,,,,,,,,,,,,,,,,,,,,,,,,,,,,,,,,,,,,,,,,,,,,,0.0,0.0,0.0,0.0,0.0,0.0,0.0,0.0,0.0,0.0,0.0,0.0,0.0,0.0,0.0,0.0,,,,,,,,,,,,,,,,,,,,,,,,,,,,,,,,,,,,,,,,,,,,,,,,,,,,,,,,,,,,,,,,,,,,,,,,,,,,,,,,,,,,,,,,,,,,,,,,,,,,,,,,,,,,,,,,708380194,b'PX4FMU_V2\x00\x00\x00\x00\x00\x00\x00',b'78bf962505a82dc6e4976fa7c6c9876a2ca60ce5\x00\x00\x00\x00\x00\x00\x00\x00\x00\x00\x00\x00\x00\x00\x00\x00\x00\x00\x00\x00\x00\x00\x00\x00',b'VTL_DF_FIX\x00\x00\x00\x00\x00\x00',1.0
0.00792295578867197,0.01539625320583582,0.0004093452007509768,-0.0009099579183384776,0.0021961545571684837,-0.0009537418372929096,0.0,0.0,0.0,,,,,0.006265285424888134,0.008055366575717926,0.0005040530231781304,0.0,0.008055366575717926,0.008055366575717926,-0.0,0.0,0.16006754338741302,-0.08404216170310974,-9.830001831054688,-0.00085296924225986,0.002008493524044752,-0.0009760995744727552,0.33137479424476624,-0.030381059274077415,0.357950359582901,,,,,,,,,,,,,,,,,,,1021.1499633789062,-65.55402374267578,34.93000030517578,-28.44599151611328,-30.304866790771484,0.0044116973876953125,0.0012413710355758667,-0.004319429397583008,0.0,0.0,0.006130379159003496,-0.018336070701479912,-0.029040111228823662,34.1032327,134.4492204,11.227294921875,31,0,0,0.0,0.0,-0.20520305633544922,-0.422531396150589,0.3838742971420288,0.0006848498596809804,1552539178599714,3,0.5830000042915344,0.9100000262260437,34.1032328,134.4492206,14.869000434875488,0.010000000707805157,0.032999999821186066,0.02500000037252903,0.10016985237598419,14,0,118,7,,,,,-0.0016145583940669894,-0.007338130846619606,0.0012082066386938095,0.0,-0.00015620568592566997,-0.007741820998489857,0.013073750771582127,0.0,0,2,0,1.0,0,0,0.0,0.0,0.0,0.0,0.0,0.0,0.0,0.0,0,0,923.0,923.0,923.0,923.0,923.0,923.0,923.0,923.0,0.0,0.0,0.0,0.0,0.0,0.949999988079071,0.0,0.0,0.0,0.0,21.56610870361328,,,,-0.004974703304469585,-0.022020461037755013,0.0002935488009825349,-0.00020912941545248032,-0.01242254488170147,0.0,0,0,0.0,0.0,0.0,0,0,34.1032328,134.4492204,11.231829643249512,0.006130379159003496,-0.018336070701479912,-0.029040111228823662,0.5830000042915344,0.9100000262260437,-1.0,,,,,,,,,,17747,100,135,11,0,0,0.0,0.0,0,0.0,0.0,0,,,,15.916199684143066,15.92398452758789,0.0,0.00024888888583518565,0.00024888888583518565,0.0,1,,,,,,,,,,,,,,,,,,,,,,,,,,,,,,,,,,,,,,,,,,,,,,,,,,,,,,,,,,,,,,,,,,,,,,,,,0.0,0.0,0.0,0.0,0.0,0.0,0.0,0.0,0.0,0.0,0.0,0.0,0.0,0.0,0.0,0.0,,,,,,,,,,,,,,,,,,,,,,,,,,,,,,,,,,,,,,,,,,,,,,,,,,,,,,,,,,,,,,,,,,,,,,,,,,,,,,,,,,,,,,,,,,,,,,,,,,,,,,,,,,,,,,,,708405219,b'PX4FMU_V2\x00\x00\x00\x00\x00\x00\x00',b'78bf962505a82dc6e4976fa7c6c9876a2ca60ce5\x00\x00\x00\x00\x00\x00\x00\x00\x00\x00\x00\x00\x00\x00\x00\x00\x00\x00\x00\x00\x00\x00\x00\x00',b'VTL_DF_FIX\x00\x00\x00\x00\x00\x00',1.0
0.00792295578867197,0.01539625320583582,0.0004093452007509768,-0.0009099579183384776,0.0021961545571684837,-0.0009537418372929096,0.0,0.0,0.0,,,,,0.006265285424888134,0.008055366575717926,0.0005040530231781304,0.0,0.008055366575717926,0.008055366575717926,-0.0,0.0,0.16006754338741302,-0.08404216170310974,-9.830001831054688,-0.00085296924225986,0.002008493524044752,-0.0009760995744727552,0.33137479424476624,-0.030381059274077415,0.357950359582901,,,,,,,,,,,,,,,,,,,1021.1499633789062,-65.55402374267578,34.93000030517578,-28.44599151611328,-30.304866790771484,0.0044116973876953125,0.0012413710355758667,-0.004319429397583008,0.0,0.0,0.006130379159003496,-0.018336070701479912,-0.029040111228823662,34.1032327,134.4492204,11.227294921875,31,0,0,0.0,0.0,-0.20520305633544922,-0.422531396150589,0.3838742971420288,0.0006848498596809804,1552539178599714,3,0.5830000042915344,0.9100000262260437,34.1032328,134.4492206,14.869000434875488,0.010000000707805157,0.032999999821186066,0.02500000037252903,0.10016985237598419,14,0,118,7,,,,,-0.0016145583940669894,-0.007338130846619606,0.0012082066386938095,0.0,-0.00015620568592566997,-0.007741820998489857,0.013073750771582127,0.0,0,2,0,1.0,0,0,0.0,0.0,0.0,0.0,0.0,0.0,0.0,0.0,0,0,923.0,923.0,923.0,923.0,923.0,923.0,923.0,923.0,0.0,0.0,0.0,0.0,0.0,0.949999988079071,0.0,0.0,0.0,0.0,21.56610870361328,,,,-0.004974703304469585,-0.022020461037755013,0.0002935488009825349,-0.00020912941545248032,-0.01242254488170147,0.0,0,0,0.0,0.0,0.0,0,0,34.1032328,134.4492204,11.231829643249512,0.006130379159003496,-0.018336070701479912,-0.029040111228823662,0.5830000042915344,0.9100000262260437,-1.0,,,,,,,,,,17747,100,135,47,32768,17872,0.0,5.4496497277592136e-42,1942,0.0,6.726232628759122e-44,64,,,,15.916199684143066,15.92398452758789,0.0,0.00024888888583518565,0.00024888888583518565,0.0,1,,,,,,,,,,,,,,,,,,,,,,,,,,,,,,,,,,,,,,,,,,,,,,,,,,,,,,,,,,,,,,,,,,,,,,,,,0.0,0.0,0.0,0.0,0.0,0.0,0.0,0.0,0.0,0.0,0.0,0.0,0.0,0.0,0.0,0.0,,,,,,,,,,,,,,,,,,,,,,,,,,,,,,,,,,,,,,,,,,,,,,,,,,,,,,,,,,,,,,,,,,,,,,,,,,,,,,,,,,,,,,,,,,,,,,,,,,,,,,,,,,,,,,,,708405219,b'PX4FMU_V2\x00\x00\x00\x00\x00\x00\x00',b'78bf962505a82dc6e4976fa7c6c9876a2ca60ce5\x00\x00\x00\x00\x00\x00\x00\x00\x00\x00\x00\x00\x00\x00\x00\x00\x00\x00\x00\x00\x00\x00\x00\x00',b'VTL_DF_FIX\x00\x00\x00\x00\x00\x00',1.0
0.007935839705169201,0.015411194413900375,0.00042524837772361934,-0.001708818250335753,0.0016066569369286299,-0.0016409780364483595,0.0,0.0,0.0,,,,,0.006265285424888134,0.008055366575717926,0.0005040530231781304,0.0,0.008055366575717926,0.008055366575717926,-0.0,0.0,0.14995387196540833,-0.10587576031684875,-9.839694023132324,-0.002428346546366811,0.002019203267991543,-0.002304891124367714,0.3216354250907898,-0.033013440668582916,0.3634728193283081,,,,,,,,,,,,,,,,,,,1021.1599731445312,-65.6367416381836,34.93000030517578,-44.85565185546875,-30.53559112548828,0.004523277282714844,0.0013928413391113281,-0.0033423900604248047,0.0,0.0,0.006238956470042467,-0.018167443573474884,-0.02861938811838627,34.1032327,134.4492204,11.227294921875,31,0,0,0.0,0.0,-0.20520305633544922,-0.422531396150589,0.3838742971420288,0.0006848498596809804,1552539178599714,3,0.5830000042915344,0.9100000262260437,34.1032328,134.4492206,14.869000434875488,0.010000000707805157,0.032999999821186066,0.02500000037252903,0.10016985237598419,14,0,118,7,,,,,-0.00032009679125621915,-0.007058737333863974,0.001994555816054344,0.0,-0.00015620568592566997,-0.007741820998489857,0.013073750771582127,0.0,0,2,0,1.0,0,0,0.0,0.0,0.0,0.0,0.0,0.0,0.0,0.0,0,0,924.0,924.0,924.0,924.0,924.0,924.0,924.0,924.0,0.0,0.0,0.0,0.0,0.0,0.949999988079071,0.0,0.0,0.0,0.0,21.557533264160156,,,,-0.005012969020754099,-0.022065576165914536,0.0002620865998324007,-0.00020912941545248032,-0.01242254488170147,0.0,0,0,0.0,0.0,0.0,0,0,34.1032328,134.4492204,11.230853080749512,0.006238956470042467,-0.018167443573474884,-0.02861938811838627,0.5830000042915344,0.9100000262260437,-1.0,,,,,,,,,,45606,212,117,79,32768,20301,0.0,2.3316204522672024e-09,0,1.5780964650983733e-19,1.233142648605839e-42,1104,,,,15.916199684143066,15.92398452758789,0.0,0.00024888888583518565,0.00024888888583518565,0.0,1,,,,,,,,,,,,,,,,,,,,,,,,,,,,,,,,,,,,,,,,,,,,,,,,,,,,,,,,,,,,,,,,,,,,,,,,,0.0,0.0,0.0,0.0,0.0,0.0,0.0,0.0,0.0,0.0,0.0,0.0,0.0,0.0,0.0,0.0,,,,,,,,,,,,,,,,,,,,,,,,,,,,,,,,,,,,,,,,,,,,,,,,,,,,,,,,,,,,,,,,,,,,,,,,,,,,,,,,,,,,,,,,,,,,,,,,,,,,,,,,,,,,,,,,708426411,b'PX4FMU_V2\x00\x00\x00\x00\x00\x00\x00',b'78bf962505a82dc6e4976fa7c6c9876a2ca60ce5\x00\x00\x00\x00\x00\x00\x00\x00\x00\x00\x00\x00\x00\x00\x00\x00\x00\x00\x00\x00\x00\x00\x00\x00',b'VTL_DF_FIX\x00\x00\x00\x00\x00\x00',1.0
0.007917303591966629,0.015427634119987488,0.0004473367880564183,-0.001971608493477106,0.0014311044942587614,-0.002047136425971985,0.0,0.0,0.0,,,,,0.006265285424888134,0.008055366575717926,0.0005040530231781304,0.0,0.008055366575717926,0.008055366575717926,-0.0,0.0,0.1470900923013687,-0.10737761110067368,-9.840922355651855,-0.0019836132414638996,0.0014421518426388502,-0.0020625905599445105,0.3255311846733093,-0.0374007448554039,0.3597911596298218,,,,,,,,,,,,,,,,,,,1021.1499633789062,-65.55402374267578,34.91999816894531,-27.703083038330078,-30.67173194885254,0.0047032833099365234,0.0015511363744735718,-0.003097057342529297,0.0,0.0,0.006232317071408033,-0.01838013529777527,-0.028347119688987732,34.1032327,134.4492204,11.227294921875,31,0,0,0.0,0.0,-0.20520305633544922,-0.422531396150589,0.3838742971420288,0.0006848498596809804,1552539178599714,3,0.5830000042915344,0.9100000262260437,34.1032328,134.4492206,14.869000434875488,0.010000000707805157,0.032999999821186066,0.02500000037252903,0.10016985237598419,14,0,118,7,,,,,-0.001045230426825583,-0.006543268449604511,0.0022639697417616844,0.0,-0.00015620568592566997,-0.007741820998489857,0.013073750771582127,0.0,0,2,0,1.0,0,0,0.0,0.0,0.0,0.0,0.0,0.0,0.0,0.0,0,0,925.0,925.0,925.0,925.0,925.0,925.0,925.0,925.0,0.0,0.0,0.0,0.0,0.0,0.949999988079071,0.0,0.0,0.0,0.0,21.547527313232422,,,,-0.0049568284302949905,-0.02211531437933445,0.00021797683439217508,-0.00020912941545248032,-0.01242254488170147,0.0,0,0,0.0,0.0,0.0,0,0,34.1032328,134.4492204,11.230607986450195,0.006232317071408033,-0.01838013529777527,-0.028347119688987732,0.5830000042915344,0.9100000262260437,-1.0,,,,,,,,,,62793,86,97,19,0,0,0.0,0.0,0,0.0,0.0,0,,,,15.916199684143066,15.92398452758789,0.0,0.00024888888583518565,0.00024888888583518565,0.0,1,,,,,,,,,,,,,,,,,,,,,,,,,,,,,,,,,,,,,,,,,,,,,,,,,,,,,,,,,,,,,,,,,,,,,,,,,0.0,0.0,0.0,0.0,0.0,0.0,0.0,0.0,0.0,0.0,0.0,0.0,0.0,0.0,0.0,0.0,,,,,,,,,,,,,,,,,,,,,,,,,,,,,,,,,,,,,,,,,,,,,,,,,,,,,,,,,,,,,,,,,,,,,,,,,,,,,,,,,,,,,,,,,,,,0.0,,,,,,,,,,,,,,,,,,,,708449311,b'PX4FMU_V2\x00\x00\x00\x00\x00\x00\x00',b'78bf962505a82dc6e4976fa7c6c9876a2ca60ce5\x00\x00\x00\x00\x00\x00\x00\x00\x00\x00\x00\x00\x00\x00\x00\x00\x00\x00\x00\x00\x00\x00\x00\x00',b'VTL_DF_FIX\x00\x00\x00\x00\x00\x00',1.0
0.007916352711617947,0.015433900989592075,0.0004583559057209641,-0.0013777493732050061,0.0020328410901129246,-0.00216973596252501,0.0,0.0,0.0,,,,,0.006265285424888134,0.008055366575717926,0.0005040530231781304,0.0,0.008055366575717926,0.008055366575717926,-0.0,0.0,0.15165038406848907,-0.08866841346025467,-9.853988647460938,-0.0019070265116170049,0.0024892750661820173,-0.001607679296284914,0.31773969531059265,-0.036523282527923584,0.3588707447052002,,,,,,,,,,,,,,,,,,,1021.0899658203125,-65.05769348144531,34.91999816894531,-26.86518096923828,-30.90806007385254,0.004812955856323242,0.00169353187084198,-0.004729270935058594,0.0,0.0,0.006402959115803242,-0.018310848623514175,-0.028520161285996437,34.1032327,134.4492204,11.227294921875,31,0,0,0.0,0.0,-0.20520305633544922,-0.422531396150589,0.3838742971420288,0.0006848498596809804,1552539178599714,3,0.5830000042915344,0.9100000262260437,34.1032328,134.4492206,14.869000434875488,0.010000000707805157,0.032999999821186066,0.02500000037252903,0.10016985237598419,14,0,118,7,,,,,-0.0015022428706288338,-0.007584669161587954,0.002383588347584009,0.0,-0.00015620568592566997,-0.007741820998489857,0.013073750771582127,0.0,0,2,0,1.0,0,0,0.0,0.0,0.0,0.0,0.0,0.0,0.0,0.0,0,0,926.0,926.0,926.0,926.0,926.0,926.0,926.0,926.0,0.0,0.0,0.0,0.0,0.0,0.949999988079071,0.0,0.0,0.0,0.0,21.558961868286133,,,,-0.004953707102686167,-0.02213432267308235,0.00019604376575443894,-0.00020912941545248032,-0.01242254488170147,0.0,0,0,0.0,0.0,0.0,0,0,34.1032328,134.4492204,11.232239723205566,0.006402959115803242,-0.018310848623514175,-0.028520161285996437,0.5830000042915344,0.9100000262260437,-1.0,,,,,,,,,,24520,193,120,72,0,0,8.407790785948902e-45,0.0,268490544,nan,1.401298464324817e-45,0,,,,15.916199684143066,15.92398452758789,0.0,0.00024888888583518565,0.00024888888583518565,0.0,1,,,,,,,,,,,,,,,,,,,,,,,,,,,,,,,,,,,,,,,,,,,,,,,,,,,,,,,,,,,,,,,,,,,,,,,,,0.0,0.0,0.0,0.0,0.0,0.0,0.0,0.0,0.0,0.0,0.0,0.0,0.0,0.0,0.0,0.0,,,,,,,,,,,,,,,,,,,,,,,,,,,,,,,,,,,,,,,,,,,,,,,,,,,,,,,,,,,,,,,,,,,,,,,,,,,,,,,,,,,,,,,,,,,,0.0,,,,,,,,,,,,,,,,,,,,708470721,b'PX4FMU_V2\x00\x00\x00\x00\x00\x00\x00',b'78bf962505a82dc6e4976fa7c6c9876a2ca60ce5\x00\x00\x00\x00\x00\x00\x00\x00\x00\x00\x00\x00\x00\x00\x00\x00\x00\x00\x00\x00\x00\x00\x00\x00',b'VTL_DF_FIX\x00\x00\x00\x00\x00\x00',1.0
0.007916352711617947,0.015433900989592075,0.0004583559057209641,-0.0013777493732050061,0.0020328410901129246,-0.00216973596252501,0.0,0.0,0.0,,,,,0.006265285424888134,0.008055366575717926,0.0005040530231781304,0.0,0.008055366575717926,0.008055366575717926,-0.0,0.0,0.15165038406848907,-0.08866841346025467,-9.853988647460938,-0.0019070265116170049,0.0024892750661820173,-0.001607679296284914,0.31773969531059265,-0.036523282527923584,0.3588707447052002,,,,,,,,,,,,,,,,,,,1021.0899658203125,-65.05769348144531,34.91999816894531,-26.86518096923828,-30.90806007385254,0.004812955856323242,0.00169353187084198,-0.004729270935058594,0.0,0.0,0.006402959115803242,-0.018310848623514175,-0.028520161285996437,34.1032327,134.4492204,11.227294921875,31,0,0,0.0,0.0,-0.20520305633544922,-0.422531396150589,0.3838742971420288,0.0006848498596809804,1552539178599714,3,0.5830000042915344,0.9100000262260437,34.1032328,134.4492206,14.869000434875488,0.010000000707805157,0.032999999821186066,0.02500000037252903,0.10016985237598419,14,0,118,7,,,,,-0.0015022428706288338,-0.007584669161587954,0.002383588347584009,0.0,-0.00015620568592566997,-0.007741820998489857,0.013073750771582127,0.0,0,2,0,1.0,0,0,0.0,0.0,0.0,0.0,0.0,0.0,0.0,0.0,0,0,926.0,926.0,926.0,926.0,926.0,926.0,926.0,926.0,0.0,0.0,0.0,0.0,0.0,0.949999988079071,0.0,0.0,0.0,0.0,21.558961868286133,,,,-0.004953707102686167,-0.02213432267308235,0.00019604376575443894,-0.00020912941545248032,-0.01242254488170147,0.0,0,0,0.0,0.0,0.0,0,0,34.1032328,134.4492204,11.232239723205566,0.006402959115803242,-0.018310848623514175,-0.028520161285996437,0.5830000042915344,0.9100000262260437,-1.0,,,,,,,,,,24520,193,120,78,0,0,9.183409485952689e-41,0.0,0,0.0,0.0,0,,,,15.932600021362305,15.923418045043945,0.0,0.00024888888583518565,0.00024888888583518565,0.0,1,,,,,,,,,,,,,,,,,,,,,,,,,,,,,,,,,,,,,,,,,,,,,,,,,,,,,,,,,,,,,,,,,,,,,,,,,0.0,0.0,0.0,0.0,0.0,0.0,0.0,0.0,0.0,0.0,0.0,0.0,0.0,0.0,0.0,0.0,,,,,,,,,,,,,,,,,,,,,,,,,,,,,,,,,,,,,,,,,,,,,,,,,,,,,,,,,,,,,,,,,,,,,,,,,,,,,,,,,,,,,,,,,,,,0.0,,,,,,,,,,,,,,,,,,,,708470721,b'PX4FMU_V2\x00\x00\x00\x00\x00\x00\x00',b'78bf962505a82dc6e4976fa7c6c9876a2ca60ce5\x00\x00\x00\x00\x00\x00\x00\x00\x00\x00\x00\x00\x00\x00\x00\x00\x00\x00\x00\x00\x00\x00\x00\x00',b'VTL_DF_FIX\x00\x00\x00\x00\x00\x00',1.0
0.007914334535598755,0.015453861095011234,0.0004722725716419518,-0.0016302649164572358,0.001717266975902021,-0.0018344057025387883,0.0,0.0,0.0,,,,,0.006265285424888134,0.008055366575717926,0.0005040530231781304,0.0,0.008055366575717926,0.008055366575717926,-0.0,0.0,0.16344699263572693,-0.08971188962459564,-9.844340324401855,-0.0012455605901777744,0.0014444219414144754,-0.001571696251630783,0.3274790346622467,-0.035645823925733566,0.3588707447052002,,,,,,,,,,,,,,,,,,,1021.0899658203125,-65.05769348144531,34.91999816894531,-27.284130096435547,-30.984195709228516,0.005035877227783203,0.001884356141090393,-0.00851893424987793,0.0,0.0,0.006479417439550161,-0.01817403733730316,-0.029467012733221054,34.1032327,134.4492204,11.227294921875,31,0,0,0.0,0.0,-0.20520305633544922,-0.422531396150589,0.3838742971420288,0.0006848498596809804,1552539178599714,3,0.5830000042915344,0.9100000262260437,34.1032328,134.4492206,14.869000434875488,0.010000000707805157,0.032999999821186066,0.02500000037252903,0.10016985237598419,14,0,118,7,,,,,-0.0010803628247231245,-0.006813048385083675,0.001986184623092413,0.0,-0.00015620568592566997,-0.007741820998489857,0.013073750771582127,0.0,0,2,0,1.0,0,0,0.0,0.0,0.0,0.0,0.0,0.0,0.0,0.0,0,0,926.0,926.0,926.0,926.0,926.0,926.0,926.0,926.0,0.0,0.0,0.0,0.0,0.0,0.949999988079071,0.0,0.0,0.0,0.0,21.553245544433594,,,,-0.004947311710566282,-0.022194460034370422,0.00016854502609930933,-0.00020912941545248032,-0.01242254488170147,0.0,0,0,0.0,0.0,0.0,0,0,34.1032328,134.4492204,11.236029624938965,0.006479417439550161,-0.01817403733730316,-0.029467012733221054,0.5830000042915344,0.9100000262260437,-1.0,,,,,,,,,,41701,12,109,11,0,0,0.0,0.0,0,0.0,0.0,0,,,,15.78499984741211,15.923100471496582,0.0,0.00024888888583518565,0.00024888888583518565,0.0,1,197,136,199,198,52832,16480,51,147113460224,197,136,199,198,52832,16480,51,147113460224,197,136,199,198,52832,16480,51,147113460224,197,136,199,198,52832,16480,51,147113460224,0.9999623894691467,0.003958553075790405,0.007726090494543314,0.00020467871217988431,0.00638832850381732,-0.018110115081071854,-0.029244737699627876,-2.799356460571289,0.18738508224487305,-3.223818778991699,-1.2006088581983931e-05,1.1047192856494803e-05,23,0,95,0,-1.5456298569915816e-05,-0.0003038415452465415,0.0,0.0,0.3307776153087616,-0.03611491620540619,0.35644859075546265,9.999999974752427e-07,9.999999974752427e-07,9.999999974752427e-07,0.0,0.0,0.0,0.0,0.0,0.0,5.164306640625,5.164306640625,4.764414778704378e-44,0,1,0,0,0,0.0,0.0,0.0,0.0,0.0,0.0,0.0,0.0,0.0,0.0,0.0,0.0,0.0,0.0,0.0,0.0,,,,,,,,,,,,,,,,,,,,,,,,,,,,,,,,,,,,,,,,,,,,,,,,,,,,,,,,,,,,,,,,,,,,,,,,,,,,,,,,,,,,,,,,,,,,0.0,,,,,,,,,,,,,,,,,1,0.9999897480010986,-0.0,708494206,b'PX4FMU_V2\x00\x00\x00\x00\x00\x00\x00',b'78bf962505a82dc6e4976fa7c6c9876a2ca60ce5\x00\x00\x00\x00\x00\x00\x00\x00\x00\x00\x00\x00\x00\x00\x00\x00\x00\x00\x00\x00\x00\x00\x00\x00',b'VTL_DF_FIX\x00\x00\x00\x00\x00\x00',1.0
0.007920602336525917,0.015446031466126442,0.00049542635679245,-0.001857343944720924,0.0013725312892347574,-0.0011856078635901213,0.0,0.0,0.0,,,,,0.006265285424888134,0.008055366575717926,0.0005040530231781304,0.0,0.008055366575717926,0.008055366575717926,-0.0,0.0,0.15411411225795746,-0.08151908963918686,-9.84273910522461,-0.0017230204539373517,0.0015291818417608738,-0.0017052784096449614,0.31871363520622253,-0.028626136481761932,0.36071157455444336,,,,,,,,,,,,,,,,,,,1021.1300048828125,-65.38858032226562,34.95000076293945,-26.96990966796875,-31.05951690673828,0.005220651626586914,0.0020577460527420044,-0.006748199462890625,0.0,0.0,0.006744013633579016,-0.01785789430141449,-0.028806401416659355,34.1032327,134.4492204,11.227294921875,31,0,0,0.0,0.0,-0.20520305633544922,-0.422531396150589,0.3838742971420288,0.0006848498596809804,1552539178599714,3,0.5830000042915344,0.9100000262260437,34.1032328,134.4492206,14.869000434875488,0.010000000707805157,0.032999999821186066,0.02500000037252903,0.10016985237598419,14,0,118,7,,,,,-0.00033744930988177657,-0.007020670920610428,0.0012908687349408865,0.0,-0.00015620568592566997,-0.007741820998489857,0.013073750771582127,0.0,0,2,0,1.0,0,0,0.0,0.0,0.0,0.0,0.0,0.0,0.0,0.0,0,0,927.0,927.0,927.0,927.0,927.0,927.0,927.0,927.0,0.0,0.0,0.0,0.0,0.0,0.949999988079071,0.0,0.0,0.0,0.0,21.557533264160156,,,,-0.004965559579432011,-0.02217140980064869,0.0001221620914293453,-0.00020912941545248032,-0.01242254488170147,0.0,0,0,0.0,0.0,0.0,0,0,34.1032328,134.4492204,11.234258651733398,0.006744013633579016,-0.01785789430141449,-0.028806401416659355,0.5830000042915344,0.9100000262260437,-1.0,,,,,,,,,,2707,212,117,65,0,0,0.0,0.0,0,0.0,0.0,0,,,,15.78499984741211,15.923100471496582,0.0,0.00024888888583518565,0.00024888888583518565,0.0,1,197,136,199,198,52832,16480,51,147113460224,197,136,199,198,52832,16480,51,147113460224,197,136,199,198,52832,16480,51,147113460224,197,136,199,198,52832,16480,51,147113460224,0.9999623894691467,0.003958553075790405,0.007726090494543314,0.00020467871217988431,0.00638832850381732,-0.018110115081071854,-0.029244737699627876,-2.799356460571289,0.18738508224487305,-3.223818778991699,-1.2006088581983931e-05,1.1047192856494803e-05,23,0,95,0,-1.5456298569915816e-05,-0.0003038415452465415,0.0,0.0,0.3307776153087616,-0.03611491620540619,0.35644859075546265,9.999999974752427e-07,9.999999974752427e-07,9.999999974752427e-07,0.0,0.0,0.0,0.0,0.0,0.0,5.164306640625,5.164306640625,4.764414778704378e-44,0,1,0,0,0,0.0,0.0,0.0,0.0,0.0,0.0,0.0,0.0,0.0,0.0,0.0,0.0,0.0,0.0,0.0,0.0,,,,,,,,,,,,,,,,,,,,,,,,,,,,,,,,,,,,,,,,,,,,,,,,,,,,,,,,,,,,,,,,,,,,,,,,,,,,,,,,,,,,,,,,,,,,0.0,,,,,,,,,,,,,,,,,1,0.9999897480010986,-0.0,708515001,b'PX4FMU_V2\x00\x00\x00\x00\x00\x00\x00',b'78bf962505a82dc6e4976fa7c6c9876a2ca60ce5\x00\x00\x00\x00\x00\x00\x00\x00\x00\x00\x00\x00\x00\x00\x00\x00\x00\x00\x00\x00\x00\x00\x00\x00',b'VTL_DF_FIX\x00\x00\x00\x00\x00\x00',1.0
0.007922297343611717,0.015470952726900578,0.0005054243956692517,-0.001449342118576169,0.00197801785543561,-0.001797333243303001,0.0,0.0,0.0,,,,,0.006265285424888134,0.008055366575717926,0.0005040530231781304,0.0,0.008055366575717926,0.008055366575717926,-0.0,0.0,0.14888375997543335,-0.09548033773899078,-9.844758987426758,-0.0017530814511701465,0.0018708457937464118,-0.0020326715894043446,0.3157918155193329,-0.0374007448554039,0.3515074551105499,,,,,,,,,,,,,,,,,,,1021.0799560546875,-64.97496795654297,34.95000076293945,-28.65548324584961,-31.06492042541504,0.005307197570800781,0.0023061931133270264,-0.012013673782348633,0.0,0.0,0.006692756898701191,-0.01765662617981434,-0.02946482226252556,34.1032327,134.4492204,11.227294921875,31,0,0,0.0,0.0,-0.20520305633544922,-0.422531396150589,0.3838742971420288,0.0006848498596809804,1552539178599714,3,0.5830000042915344,0.9100000262260437,34.1032328,134.4492206,14.869000434875488,0.010000000707805157,0.032999999821186066,0.02500000037252903,0.10016985237598419,14,0,118,7,,,,,-0.0014179965946823359,-0.0073173074051737785,0.0019229862373322248,0.0,-0.00015620568592566997,-0.007741820998489857,0.013073750771582127,0.0,0,2,0,1.0,0,0,0.0,0.0,0.0,0.0,0.0,0.0,0.0,0.0,0,0,928.0,928.0,928.0,928.0,928.0,928.0,928.0,928.0,0.0,0.0,0.0,0.0,0.0,0.949999988079071,0.0,0.0,0.0,0.0,21.563249588012695,,,,-0.004970397334545851,-0.022246355190873146,0.00010251411003991961,-0.00020912941545248032,-0.01242254488170147,0.0,0,0,0.0,0.0,0.0,0,0,34.1032328,134.4492204,11.239523887634277,0.006692756898701191,-0.01765662617981434,-0.02946482226252556,0.5830000042915344,0.9100000262260437,-1.0,,,,,,,,,,13635,137,129,64,0,0,0.0,0.0,0,0.0,0.0,0,,,,15.78499984741211,15.923100471496582,0.0,0.00024888888583518565,0.00024888888583518565,0.0,1,197,136,199,198,52832,16480,51,147113460224,197,136,199,198,52832,16480,51,147113460224,197,136,199,198,52832,16480,51,147113460224,197,136,199,198,52832,16480,51,147113460224,0.9999623894691467,0.003958553075790405,0.007726090494543314,0.00020467871217988431,0.00638832850381732,-0.018110115081071854,-0.029244737699627876,-2.799356460571289,0.18738508224487305,-3.223818778991699,-1.2006088581983931e-05,1.1047192856494803e-05,23,0,95,0,-1.5456298569915816e-05,-0.0003038415452465415,0.0,0.0,0.3307776153087616,-0.03611491620540619,0.35644859075546265,9.999999974752427e-07,9.999999974752427e-07,9.999999974752427e-07,0.0,0.0,0.0,0.0,0.0,0.0,5.164306640625,5.164306640625,4.764414778704378e-44,0,1,0,0,0,0.0,0.0,0.0,0.0,0.0,0.0,0.0,0.0,0.0,0.0,0.0,0.0,0.0,0.0,0.0,0.0,,,,,,,,,,,,,,,,,,,,,,,,,,,,,,,,,,,,,,,,,,,,,,,,,,,,,,,,,,,,,,,,,,,,,,,,,,,,,,,,,,,,,,,,,,,,0.0,,,,,,,,,,,,,,,,,1,0.9999897480010986,-0.0,708538539,b'PX4FMU_V2\x00\x00\x00\x00\x00\x00\x00',b'78bf962505a82dc6e4976fa7c6c9876a2ca60ce5\x00\x00\x00\x00\x00\x00\x00\x00\x00\x00\x00\x00\x00\x00\x00\x00\x00\x00\x00\x00\x00\x00\x00\x00',b'VTL_DF_FIX\x00\x00\x00\x00\x00\x00',1.0
0.007914412766695023,0.01546794455498457,0.0004925040993839502,-0.00201693968847394,0.0020020680967718363,-0.0031130288261920214,0.0,0.0,0.0,,,,,0.006265285424888134,0.008055366575717926,0.0005040530231781304,0.0,0.008055366575717926,0.008055366575717926,-0.0,0.0,0.14851003885269165,-0.09242768585681915,-9.838777542114258,-0.0022874129936099052,0.0023448376450687647,-0.0027731643058359623,0.32455724477767944,-0.0321359820663929,0.3570299446582794,,,,,,,,,,,,,,,,,,,1021.1199951171875,-65.30586242675781,34.96999740600586,-29.17916488647461,-31.00534439086914,0.0057659149169921875,0.002641931176185608,-0.011314630508422852,0.0,0.0,0.0071153962053358555,-0.017170093953609467,-0.030001522973179817,34.1032327,134.4492204,11.227294921875,31,0,0,0.0,0.0,-0.20520305633544922,-0.422531396150589,0.3838742971420288,0.0006848498596809804,1552539178599714,3,0.5830000042915344,0.9100000262260437,34.1032328,134.4492206,14.869000434875488,0.010000000707805157,0.032999999821186066,0.02500000037252903,0.10016985237598419,14,0,118,7,,,,,-0.00031386304181069136,-0.007496144622564316,0.003217975841835141,0.0,-0.00015620568592566997,-0.007741820998489857,0.013073750771582127,0.0,0,2,0,1.0,0,0,0.0,0.0,0.0,0.0,0.0,0.0,0.0,0.0,0,0,930.0,930.0,930.0,930.0,930.0,930.0,930.0,930.0,0.0,0.0,0.0,0.0,0.0,0.949999988079071,0.0,0.0,0.0,0.0,21.556102752685547,,,,-0.0049470532685518265,-0.02223709225654602,0.00012828368926420808,-0.00020912941545248032,-0.01242254488170147,0.0,0,0,0.0,0.0,0.0,0,0,34.1032328,134.4492204,11.238824844360352,0.0071153962053358555,-0.017170093953609467,-0.030001522973179817,0.5830000042915344,0.9100000262260437,-1.0,,,,,,,,,,57879,230,114,43,0,0,0.0,0.0,65535,0.0,0.0,0,,,,15.78499984741211,15.923100471496582,0.0,0.00024888888583518565,0.00024888888583518565,0.0,1,197,136,199,198,52832,16480,51,147113460224,197,136,199,198,52832,16480,51,147113460224,197,136,199,198,52832,16480,51,147113460224,197,136,199,198,52832,16480,51,147113460224,0.9999623894691467,0.003958553075790405,0.007726090494543314,0.00020467871217988431,0.00638832850381732,-0.018110115081071854,-0.029244737699627876,-2.799356460571289,0.18738508224487305,-3.223818778991699,-1.2006088581983931e-05,1.1047192856494803e-05,23,0,95,0,-1.5456298569915816e-05,-0.0003038415452465415,0.0,0.0,0.3307776153087616,-0.03611491620540619,0.35644859075546265,9.999999974752427e-07,9.999999974752427e-07,9.999999974752427e-07,0.0,0.0,0.0,0.0,0.0,0.0,5.164306640625,5.164306640625,4.764414778704378e-44,0,1,0,0,0,0.0,0.0,0.0,0.0,0.0,0.0,0.0,0.0,0.0,0.0,0.0,0.0,0.0,0.0,0.0,0.0,,,,,,,,,,,,,,,,,,,,,,,,,,,,,,,,,,,,,,,,,,,,,,,,,,,,,,,,,,,,,,,,,,,,,,,,,,,,,,,,,,,,,,,,,,,,0.0,,,,,,,,,,,,,,,,,1,0.9999897480010986,-0.0,708580437,b'PX4FMU_V2\x00\x00\x00\x00\x00\x00\x00',b'78bf962505a82dc6e4976fa7c6c9876a2ca60ce5\x00\x00\x00\x00\x00\x00\x00\x00\x00\x00\x00\x00\x00\x00\x00\x00\x00\x00\x00\x00\x00\x00\x00\x00',b'VTL_DF_FIX\x00\x00\x00\x00\x00\x00',1.0
0.007914412766695023,0.01546794455498457,0.0004925040993839502,-0.00201693968847394,0.0020020680967718363,-0.0031130288261920214,0.0,0.0,0.0,,,,,0.006265285424888134,0.008055366575717926,0.0005040530231781304,0.0,0.008055366575717926,0.008055366575717926,-0.0,0.0,0.14851003885269165,-0.09242768585681915,-9.838777542114258,-0.0022874129936099052,0.0023448376450687647,-0.0027731643058359623,0.32455724477767944,-0.0321359820663929,0.3570299446582794,,,,,,,,,,,,,,,,,,,1021.1199951171875,-65.30586242675781,34.96999740600586,-29.17916488647461,-31.00534439086914,0.0057659149169921875,0.002641931176185608,-0.011314630508422852,0.0,0.0,0.0071153962053358555,-0.017170093953609467,-0.030001522973179817,34.1032327,134.4492204,11.227294921875,31,0,0,0.0,0.0,-0.20520305633544922,-0.422531396150589,0.3838742971420288,0.0006848498596809804,1552539178599714,3,0.5830000042915344,0.9100000262260437,34.1032328,134.4492206,14.869000434875488,0.010000000707805157,0.032999999821186066,0.02500000037252903,0.10016985237598419,14,0,118,7,,,,,-0.00031386304181069136,-0.007496144622564316,0.003217975841835141,0.0,-0.00015620568592566997,-0.007741820998489857,0.013073750771582127,0.0,0,2,0,1.0,0,0,0.0,0.0,0.0,0.0,0.0,0.0,0.0,0.0,0,0,930.0,930.0,930.0,930.0,930.0,930.0,930.0,930.0,0.0,0.0,0.0,0.0,0.0,0.949999988079071,0.0,0.0,0.0,0.0,21.556102752685547,,,,-0.0049470532685518265,-0.02223709225654602,0.00012828368926420808,-0.00020912941545248032,-0.01242254488170147,0.0,0,0,0.0,0.0,0.0,0,0,34.1032328,134.4492204,11.238824844360352,0.0071153962053358555,-0.017170093953609467,-0.030001522973179817,0.5830000042915344,0.9100000262260437,-1.0,,,,,,,,,,57879,230,114,64,0,0,0.0,0.0,0,0.0,0.0,0,,,,15.78499984741211,15.923100471496582,0.0,0.00024888888583518565,0.00024888888583518565,0.0,1,197,136,199,198,52832,16480,51,147113460224,197,136,199,198,52832,16480,51,147113460224,197,136,199,198,52832,16480,51,147113460224,197,136,199,198,52832,16480,51,147113460224,0.9999623894691467,0.003958553075790405,0.007726090494543314,0.00020467871217988431,0.00638832850381732,-0.018110115081071854,-0.029244737699627876,-2.799356460571289,0.18738508224487305,-3.223818778991699,-1.2006088581983931e-05,1.1047192856494803e-05,23,0,95,0,-1.5456298569915816e-05,-0.0003038415452465415,0.0,0.0,0.3307776153087616,-0.03611491620540619,0.35644859075546265,9.999999974752427e-07,9.999999974752427e-07,9.999999974752427e-07,0.0,0.0,0.0,0.0,0.0,0.0,5.164306640625,5.164306640625,4.764414778704378e-44,0,1,0,0,0,0.0,0.0,0.0,0.0,0.0,0.0,0.0,0.0,0.0,0.0,0.0,0.0,0.0,0.0,0.0,0.0,,,,,,,,,,,,,,,,,,,,,,,,,,,,,,,,,,,,,,,,,,,,,,,,,,,,,,,,,,,,,,,,,,,,,,,,,,,,,,,,,,,,,,,,,,,,0.0,,,,,,,,,,,,,,,,,1,0.9999897480010986,-0.0,708580437,b'PX4FMU_V2\x00\x00\x00\x00\x00\x00\x00',b'78bf962505a82dc6e4976fa7c6c9876a2ca60ce5\x00\x00\x00\x00\x00\x00\x00\x00\x00\x00\x00\x00\x00\x00\x00\x00\x00\x00\x00\x00\x00\x00\x00\x00',b'VTL_DF_FIX\x00\x00\x00\x00\x00\x00',1.0
0.00788709707558155,0.015480777248740196,0.0004865851951763034,-0.0013275688979774714,0.0023201259318739176,-0.0021812019404023886,0.0,0.0,0.0,,,,,0.006265285424888134,0.008055366575717926,0.0005040530231781304,0.0,0.008055366575717926,0.008055366575717926,-0.0,0.0,0.1578609049320221,-0.10470883548259735,-9.851325988769531,-0.0011598813580349088,0.0021344004198908806,-0.002003513043746352,0.3265051245689392,-0.04003312438726425,0.3588707447052002,,,,,,,,,,,,,,,,,,,1021.1499633789062,-65.55402374267578,34.96999740600586,-29.07440185546875,-30.929264068603516,0.006142854690551758,0.002431899309158325,-0.011181354522705078,0.0,0.0,0.007451955694705248,-0.017611704766750336,-0.029868848621845245,34.1032327,134.4492204,11.227294921875,31,0,0,0.0,0.0,-0.20520305633544922,-0.422531396150589,0.3838742971420288,0.0006848498596809804,1552539178799714,3,0.5830000042915344,0.9110000729560852,34.1032329,134.4492205,14.850000381469727,0.01100000087171793,-0.08000000566244125,-0.0020000000949949026,0.10016985237598419,14,0,118,7,,,,,-0.0020318562164902687,-0.007700249087065458,0.002283704001456499,0.0,-0.00015620568592566997,-0.007741820998489857,0.013073750771582127,0.0,0,2,0,1.0,0,0,0.0,0.0,0.0,0.0,0.0,0.0,0.0,0.0,0,0,931.0,931.0,931.0,931.0,931.0,931.0,931.0,931.0,0.0,0.0,0.0,0.0,0.0,0.949999988079071,0.0,0.0,0.0,0.0,21.557533264160156,,,,-0.004865250084549189,-0.022275473922491074,0.00014004351396579295,-0.00020912941545248032,-0.01242254488170147,0.0,0,0,0.0,0.0,0.0,0,0,34.1032328,134.4492204,11.238691329956055,0.007451955694705248,-0.017611704766750336,-0.029868848621845245,0.5830000042915344,0.9110000729560852,-1.0,,,,,,,,,,23867,212,117,62,0,0,0.0,0.0,0,0.0,0.0,0,,,,15.858799934387207,15.92237663269043,0.0,0.00024888888583518565,0.00024888888583518565,0.0,1,197,136,199,198,52832,16480,51,147113460224,197,136,199,198,52832,16480,51,147113460224,197,136,199,198,52832,16480,51,147113460224,197,136,199,198,52832,16480,51,147113460224,0.9999623894691467,0.003958553075790405,0.007726090494543314,0.00020467871217988431,0.00638832850381732,-0.018110115081071854,-0.029244737699627876,-2.799356460571289,0.18738508224487305,-3.223818778991699,-1.2006088581983931e-05,1.1047192856494803e-05,23,0,95,0,-1.5456298569915816e-05,-0.0003038415452465415,0.0,0.0,0.3307776153087616,-0.03611491620540619,0.35644859075546265,9.999999974752427e-07,9.999999974752427e-07,9.999999974752427e-07,0.0,0.0,0.0,0.0,0.0,0.0,5.164306640625,5.164306640625,4.764414778704378e-44,0,1,0,0,0,0.0,0.0,0.0,0.0,0.0,0.0,0.0,0.0,0.0,0.0,0.0,0.0,0.0,0.0,0.0,0.0,,,,,,,,,,,,,,,,,,,,,,,,,,,,,,,,,,,,,,,,,,,,,,,,,,,,,,,,,,,,,,,,,,,,,,,,,,,,,,,,,,,,,,,,,,,,0.0,,,,,,,,,,,,,,,,,1,0.9999897480010986,-0.0,708604780,b'PX4FMU_V2\x00\x00\x00\x00\x00\x00\x00',b'78bf962505a82dc6e4976fa7c6c9876a2ca60ce5\x00\x00\x00\x00\x00\x00\x00\x00\x00\x00\x00\x00\x00\x00\x00\x00\x00\x00\x00\x00\x00\x00\x00\x00',b'VTL_DF_FIX\x00\x00\x00\x00\x00\x00',1.0
0.007883477956056595,0.015478898771107197,0.0004548613214865327,-0.002313577337190509,0.0014769163681194186,-0.0012426382163539529,0.0,0.0,0.0,,,,,0.006265285424888134,0.008055366575717926,0.0005040530231781304,0.0,0.008055366575717926,0.008055366575717926,-0.0,0.0,0.14325663447380066,-0.0957338958978653,-9.832818984985352,-0.002667546272277832,0.0018092755926772952,-0.0006411731010302901,0.3255311846733093,-0.03125851973891258,0.36163198947906494,,,,,,,,,,,,,,,,,,,1021.1900024414062,-65.88489532470703,34.959999084472656,-45.27460479736328,-30.905881881713867,0.0064852237701416016,0.0018632113933563232,-0.008100748062133789,0.0,0.0,0.007626560516655445,-0.01822556182742119,-0.029322752729058266,34.1032327,134.4492204,11.227294921875,31,0,0,0.0,0.0,-0.20520305633544922,-0.422531396150589,0.3838742971420288,0.0006848498596809804,1552539178799714,3,0.5830000042915344,0.9110000729560852,34.1032329,134.4492205,14.850000381469727,0.01100000087171793,-0.08000000566244125,-0.0020000000949949026,0.10016985237598419,14,0,118,7,,,,,7.137644570320845e-05,-0.006703029852360487,0.001395304105244577,0.0,-0.00015620568592566997,-0.007741820998489857,0.013073750771582127,0.0,0,2,0,1.0,0,0,0.0,0.0,0.0,0.0,0.0,0.0,0.0,0.0,0,0,931.0,931.0,931.0,931.0,931.0,931.0,931.0,931.0,0.0,0.0,0.0,0.0,0.0,0.949999988079071,0.0,0.0,0.0,0.0,21.551815032958984,,,,-0.004855159670114517,-0.022269245237112045,0.00020341693016234785,-0.00020912941545248032,-0.01242254488170147,0.0,0,0,0.0,0.0,0.0,0,0,34.1032328,134.4492204,11.235610961914062,0.007626560516655445,-0.01822556182742119,-0.029322752729058266,0.5830000042915344,0.9110000729560852,-1.0,,,,,,,,,,38188,30,106,29,0,0,0.0,0.0,0,0.0,0.0,0,,,,15.735799789428711,15.92208480834961,0.0,0.00024888888583518565,0.00024888888583518565,0.0,1,165,136,16,197,52832,16480,51,147113416294,165,136,16,197,52832,16480,51,147113416294,165,136,16,197,52832,16480,51,147113416294,165,136,16,197,52832,16480,51,147113416294,0.9999622702598572,0.0039446051232516766,0.007741737645119429,0.00019674719078466296,0.007569707464426756,-0.017857085913419724,-0.029914140701293945,-2.7979304790496826,0.18770501017570496,-3.2268571853637695,-1.2009655620204285e-05,1.1051343790313695e-05,23,0,95,0,-1.5456298569915816e-05,-0.0003038415452465415,0.0,0.0,0.3307776153087616,-0.03611491620540619,0.35644859075546265,9.999999974752427e-07,9.999999974752427e-07,9.999999974752427e-07,0.0,0.0,0.0,0.0,0.0,0.0,5.143359184265137,5.143359184265137,4.764414778704378e-44,0,1,0,0,0,0.0,0.0,0.0,0.0,0.0,0.0,0.0,0.0,0.0,0.0,0.0,0.0,0.0,0.0,0.0,0.0,,,,,,,,,,,,,,,,,,,,,,,,,,,,,,,,,,,,,,,,,,,,,,,,,,,,,,,,,,,,,,,,,,,,,,,,,,,,,,,,,,,,,,,,,,,,0.0,,,,-0.010256410576403141,0.010256410576403141,0.01794871874153614,0.0,,,,,,,,,,1,0.9999897480010986,-0.0,708625749,b'PX4FMU_V2\x00\x00\x00\x00\x00\x00\x00',b'78bf962505a82dc6e4976fa7c6c9876a2ca60ce5\x00\x00\x00\x00\x00\x00\x00\x00\x00\x00\x00\x00\x00\x00\x00\x00\x00\x00\x00\x00\x00\x00\x00\x00',b'VTL_DF_FIX\x00\x00\x00\x00\x00\x00',1.0
0.007846960797905922,0.015482461079955101,0.00045081687858328223,-0.0013445725198835135,0.0021560227032750845,-0.0013137422502040863,0.0,0.0,0.0,,,,,0.006265285424888134,0.008055366575717926,0.0005040530231781304,0.0,0.008055366575717926,0.008055366575717926,-0.0,0.0,0.13340215384960175,-0.09306874126195908,-9.850869178771973,-0.0014747659442946315,0.0021920986473560333,-0.001574385678395629,0.3274790346622467,-0.03389090299606323,0.357950359582901,,,,,,,,,,,,,,,,,,,1021.1300048828125,-65.38858032226562,34.959999084472656,-52.64472198486328,-30.962318420410156,0.0070536136627197266,0.0008048713207244873,-0.009452342987060547,0.0,0.0,0.007657221984118223,-0.01926521770656109,-0.029525624588131905,34.1032327,134.4492204,11.227294921875,31,0,0,0.0,0.0,-0.20520305633544922,-0.422531396150589,0.3838742971420288,0.0006848498596809804,1552539178799714,3,0.5830000042915344,0.9110000729560852,34.1032329,134.4492205,14.850000381469727,0.01100000087171793,-0.08000000566244125,-0.0020000000949949026,0.10016985237598419,14,0,118,7,,,,,-0.0009435188840143383,-0.007514212280511856,0.0015407783212140203,0.0,-0.00015620568592566997,-0.007741820998489857,0.013073750771582127,0.0,0,2,0,1.0,0,0,0.0,0.0,0.0,0.0,0.0,0.0,0.0,0.0,0,0,932.0,932.0,932.0,932.0,932.0,932.0,932.0,932.0,0.0,0.0,0.0,0.0,0.0,0.949999988079071,0.0,0.0,0.0,0.0,21.56610870361328,,,,-0.004745712503790855,-0.022279853001236916,0.0002113182854373008,-0.00020912941545248032,-0.01242254488170147,0.0,0,0,0.0,0.0,0.0,0,0,34.1032328,134.4492204,11.236963272094727,0.007657221984118223,-0.01926521770656109,-0.029525624588131905,0.5830000042915344,0.9110000729560852,-1.0,,,,,,,,,,65117,100,135,64,0,0,0.0,0.0,0,0.0,0.0,0,,,,15.735799789428711,15.92208480834961,0.0,0.00024888888583518565,0.00024888888583518565,0.0,1,165,136,16,197,52832,16480,51,147113416294,165,136,16,197,52832,16480,51,147113416294,165,136,16,197,52832,16480,51,147113416294,165,136,16,197,52832,16480,51,147113416294,0.9999622702598572,0.0039446051232516766,0.007741737645119429,0.00019674719078466296,0.007569707464426756,-0.017857085913419724,-0.029914140701293945,-2.7979304790496826,0.18770501017570496,-3.2268571853637695,-1.2009655620204285e-05,1.1051343790313695e-05,23,0,95,0,-1.5456298569915816e-05,-0.0003038415452465415,0.0,0.0,0.3307776153087616,-0.03611491620540619,0.35644859075546265,9.999999974752427e-07,9.999999974752427e-07,9.999999974752427e-07,0.0,0.0,0.0,0.0,0.0,0.0,5.143359184265137,5.143359184265137,4.764414778704378e-44,0,1,0,0,0,0.0,0.0,0.0,0.0,0.0,0.0,0.0,0.0,0.0,0.0,0.0,0.0,0.0,0.0,0.0,0.0,,,,,,,,,,,,,,,,,,,,,,,,,,,,,,,,,,,,,,,,,,,,,,,,,,,,,,,,,,,,,,,,,,,,,,,,,,,,,,,,,,,,,,,,,,,,0.0,,,,-0.010256410576403141,0.010256410576403141,0.01794871874153614,0.0,,,,,,,,,,1,0.9999897480010986,-0.0,708647786,b'PX4FMU_V2\x00\x00\x00\x00\x00\x00\x00',b'78bf962505a82dc6e4976fa7c6c9876a2ca60ce5\x00\x00\x00\x00\x00\x00\x00\x00\x00\x00\x00\x00\x00\x00\x00\x00\x00\x00\x00\x00\x00\x00\x00\x00',b'VTL_DF_FIX\x00\x00\x00\x00\x00\x00',1.0
0.007833544164896011,0.015492097474634647,0.00044481726945377886,-0.002158562419936061,0.0011737655149772763,-0.0018626151140779257,0.0,0.0,0.0,,,,,0.006265285424888134,0.008055366575717926,0.0005040530231781304,0.0,0.008055366575717926,0.008055366575717926,-0.0,0.0,0.15146473050117493,-0.08724065124988556,-9.863917350769043,-0.0014665857888758183,0.0019885196816176176,-0.0021276907064020634,0.3216354250907898,-0.03125851973891258,0.3597911596298218,,,,,,,,,,,,,,,,,,,1021.0999755859375,-65.14041137695312,34.959999084472656,-29.297565460205078,-31.054935455322266,0.007248878479003906,0.00017972290515899658,-0.012531518936157227,0.0,0.0,0.007424500305205584,-0.01979238912463188,-0.0301341749727726,34.1032327,134.4492204,11.227294921875,31,0,0,0.0,0.0,-0.20520305633544922,-0.422531396150589,0.3838742971420288,0.0006848498596809804,1552539178799714,3,0.5830000042915344,0.9110000729560852,34.1032329,134.4492205,14.850000381469727,0.01100000087171793,-0.08000000566244125,-0.0020000000949949026,0.10016985237598419,14,0,118,7,,,,,-0.0004495705652516335,-0.0064834849908947945,0.0021178259048610926,0.0,-0.00015620568592566997,-0.007741820998489857,0.013073750771582127,0.0,0,2,0,1.0,0,0,0.0,0.0,0.0,0.0,0.0,0.0,0.0,0.0,0,0,934.0,934.0,934.0,934.0,934.0,934.0,934.0,934.0,0.0,0.0,0.0,0.0,0.0,0.949999988079071,0.0,0.0,0.0,0.0,21.597551345825195,,,,-0.0047056046314537525,-0.022308649495244026,0.00022337120026350021,-0.00020912941545248032,-0.01242254488170147,0.0,0,0,0.0,0.0,0.0,0,0,34.1032328,134.4492204,11.240041732788086,0.007424500305205584,-0.01979238912463188,-0.0301341749727726,0.5830000042915344,0.9110000729560852,-1.0,,,,,,,,,,16703,201,199,13,8192,16,1.0865327538613726e-19,2.2420775429197073e-44,536883253,-2.2420775429197073e-44,1.0874174493758922e-19,18032,,,,15.735799789428711,15.92208480834961,0.0,0.00024888888583518565,0.00024888888583518565,0.0,1,165,136,16,197,52832,16480,51,147113416294,165,136,16,197,52832,16480,51,147113416294,165,136,16,197,52832,16480,51,147113416294,165,136,16,197,52832,16480,51,147113416294,0.9999622702598572,0.0039446051232516766,0.007741737645119429,0.00019674719078466296,0.007569707464426756,-0.017857085913419724,-0.029914140701293945,-2.7979304790496826,0.18770501017570496,-3.2268571853637695,-1.2009655620204285e-05,1.1051343790313695e-05,23,0,95,0,-1.5456298569915816e-05,-0.0003038415452465415,0.0,0.0,0.3307776153087616,-0.03611491620540619,0.35644859075546265,9.999999974752427e-07,9.999999974752427e-07,9.999999974752427e-07,0.0,0.0,0.0,0.0,0.0,0.0,5.143359184265137,5.143359184265137,4.764414778704378e-44,0,1,0,0,0,0.0,0.0,0.0,0.0,0.0,0.0,0.0,0.0,0.0,0.0,0.0,0.0,0.0,0.0,0.0,0.0,,,,,,,,,,,,,,,,,,,,,,,,,,,,,,,,,,,,,,,,,,,,,,,,,,,,,,,,,,,,,,,,,,,,,,,,,,,,,,,,,,,,,,,,,,,,0.0,,,,-0.010256410576403141,0.010256410576403141,0.01794871874153614,0.0,,,,,,,,,,1,0.9999897480010986,-0.0,708668888,b'PX4FMU_V2\x00\x00\x00\x00\x00\x00\x00',b'78bf962505a82dc6e4976fa7c6c9876a2ca60ce5\x00\x00\x00\x00\x00\x00\x00\x00\x00\x00\x00\x00\x00\x00\x00\x00\x00\x00\x00\x00\x00\x00\x00\x00',b'VTL_DF_FIX\x00\x00\x00\x00\x00\x00',1.0
0.007833544164896011,0.015492097474634647,0.00044481726945377886,-0.002158562419936061,0.0011737655149772763,-0.0018626151140779257,0.0,0.0,0.0,,,,,0.006265285424888134,0.008055366575717926,0.0005040530231781304,0.0,0.008055366575717926,0.008055366575717926,-0.0,0.0,0.15146473050117493,-0.08724065124988556,-9.863917350769043,-0.0014665857888758183,0.0019885196816176176,-0.0021276907064020634,0.3216354250907898,-0.03125851973891258,0.3597911596298218,,,,,,,,,,,,,,,,,,,1021.0999755859375,-65.14041137695312,34.959999084472656,-29.297565460205078,-31.054935455322266,0.007248878479003906,0.00017972290515899658,-0.012531518936157227,0.0,0.0,0.007424500305205584,-0.01979238912463188,-0.0301341749727726,34.1032327,134.4492204,11.227294921875,31,0,0,0.0,0.0,-0.20520305633544922,-0.422531396150589,0.3838742971420288,0.0006848498596809804,1552539178799714,3,0.5830000042915344,0.9110000729560852,34.1032329,134.4492205,14.850000381469727,0.01100000087171793,-0.08000000566244125,-0.0020000000949949026,0.10016985237598419,14,0,118,7,,,,,-0.0004495705652516335,-0.0064834849908947945,0.0021178259048610926,0.0,-0.00015620568592566997,-0.007741820998489857,0.013073750771582127,0.0,0,2,0,1.0,0,0,0.0,0.0,0.0,0.0,0.0,0.0,0.0,0.0,0,0,934.0,934.0,934.0,934.0,934.0,934.0,934.0,934.0,0.0,0.0,0.0,0.0,0.0,0.949999988079071,0.0,0.0,0.0,0.0,21.597551345825195,,,,-0.0047056046314537525,-0.022308649495244026,0.00022337120026350021,-0.00020912941545248032,-0.01242254488170147,0.0,0,0,0.0,0.0,0.0,0,0,34.1032328,134.4492204,11.240041732788086,0.007424500305205584,-0.01979238912463188,-0.0301341749727726,0.5830000042915344,0.9110000729560852,-1.0,,,,,,,,,,16703,201,199,34,0,1,0.0,1.401298464324817e-45,0,0.0,0.0,0,,,,15.735799789428711,15.92208480834961,0.0,0.00024888888583518565,0.00024888888583518565,0.0,1,165,136,16,197,52832,16480,51,147113416294,165,136,16,197,52832,16480,51,147113416294,165,136,16,197,52832,16480,51,147113416294,165,136,16,197,52832,16480,51,147113416294,0.9999622702598572,0.0039446051232516766,0.007741737645119429,0.00019674719078466296,0.007569707464426756,-0.017857085913419724,-0.029914140701293945,-2.7979304790496826,0.18770501017570496,-3.2268571853637695,-1.2009655620204285e-05,1.1051343790313695e-05,23,0,95,0,-1.5456298569915816e-05,-0.0003038415452465415,0.0,0.0,0.3307776153087616,-0.03611491620540619,0.35644859075546265,9.999999974752427e-07,9.999999974752427e-07,9.999999974752427e-07,0.0,0.0,0.0,0.0,0.0,0.0,5.143359184265137,5.143359184265137,4.764414778704378e-44,0,1,0,0,0,0.0,0.0,0.0,0.0,0.0,0.0,0.0,0.0,0.0,0.0,0.0,0.0,0.0,0.0,0.0,0.0,,,,,,,,,,,,,,,,,,,,,,,,,,,,,,,,,,,,,,,,,,,,,,,,,,,,,,,,,,,,,,,,,,,,,,,,,,,,,,,,,,,,,,,,,,,,0.0,,,,-0.010256410576403141,0.010256410576403141,0.01794871874153614,0.0,,,,,,,,,,1,0.9999897480010986,-0.0,708668888,b'PX4FMU_V2\x00\x00\x00\x00\x00\x00\x00',b'78bf962505a82dc6e4976fa7c6c9876a2ca60ce5\x00\x00\x00\x00\x00\x00\x00\x00\x00\x00\x00\x00\x00\x00\x00\x00\x00\x00\x00\x00\x00\x00\x00\x00',b'VTL_DF_FIX\x00\x00\x00\x00\x00\x00',1.0
